{
    "routes": [
        {
            "route_name": "автобус 67",
            "route_direction": "До ост. Топкинский микрорайон",
            "route_id": "1548717962297413_5mD3j98963G2J26788IG87GG33ymgx47G6G4735786B8444Hudcn56874J153G6GG39CBCG3tjcAuv774C6B27A854AAACCAH1GJHGII3Hf9",
            "stops": [
                {
                    "name": "Первомайский микрорайон",
                    "coordinates": {
                        "lat": 52.253608,
                        "lon": 104.234086
                    }
                },
                {
                    "name": "Вампилова",
                    "coordinates": {
                        "lat": 52.256917,
                        "lon": 104.236493
                    }
                },
                {
                    "name": "Ботанический Сад",
                    "coordinates": {
                        "lat": 52.261746,
                        "lon": 104.242402
                    }
                },
                {
                    "name": "Школа №55",
                    "coordinates": {
                        "lat": 52.258821,
                        "lon": 104.248898
                    }
                },
                {
                    "name": "Гуманитарный центр",
                    "coordinates": {
                        "lat": 52.253155,
                        "lon": 104.248164
                    }
                },
                {
                    "name": "Юридический институт",
                    "coordinates": {
                        "lat": 52.25078,
                        "lon": 104.252533
                    }
                },
                {
                    "name": "Институт МВД",
                    "coordinates": {
                        "lat": 52.257454,
                        "lon": 104.262952
                    }
                },
                {
                    "name": "Технический университет",
                    "coordinates": {
                        "lat": 52.263088,
                        "lon": 104.260023
                    }
                },
                {
                    "name": "Жуковского",
                    "coordinates": {
                        "lat": 52.269044,
                        "lon": 104.25732
                    }
                },
                {
                    "name": "Педучилище",
                    "coordinates": {
                        "lat": 52.27505,
                        "lon": 104.255879
                    }
                },
                {
                    "name": "Свердловский рынок",
                    "coordinates": {
                        "lat": 52.280158,
                        "lon": 104.253176
                    }
                },
                {
                    "name": "Гоголя",
                    "coordinates": {
                        "lat": 52.286007,
                        "lon": 104.250157
                    }
                },
                {
                    "name": "ул. Маяковского",
                    "coordinates": {
                        "lat": 52.287385,
                        "lon": 104.254015
                    }
                },
                {
                    "name": "Чкалова",
                    "coordinates": {
                        "lat": 52.288047,
                        "lon": 104.27385
                    }
                },
                {
                    "name": "Сквер им. Кирова",
                    "coordinates": {
                        "lat": 52.289184,
                        "lon": 104.278454
                    }
                },
                {
                    "name": "Художественный музей",
                    "coordinates": {
                        "lat": 52.283433,
                        "lon": 104.280771
                    }
                },
                {
                    "name": "Филармония",
                    "coordinates": {
                        "lat": 52.278085,
                        "lon": 104.285047
                    }
                },
                {
                    "name": "Центральный рынок",
                    "coordinates": {
                        "lat": 52.281521,
                        "lon": 104.292094
                    }
                },
                {
                    "name": "Центральный рынок",
                    "coordinates": {
                        "lat": 52.283529,
                        "lon": 104.294731
                    }
                },
                {
                    "name": "Завод им. Куйбышева",
                    "coordinates": {
                        "lat": 52.289587,
                        "lon": 104.296075
                    }
                },
                {
                    "name": "Институт зрения",
                    "coordinates": {
                        "lat": 52.290741,
                        "lon": 104.292792
                    }
                },
                {
                    "name": "Декабрьских Событий",
                    "coordinates": {
                        "lat": 52.291307,
                        "lon": 104.290415
                    }
                },
                {
                    "name": "Фортуна",
                    "coordinates": {
                        "lat": 52.295472,
                        "lon": 104.291901
                    }
                },
                {
                    "name": "ГПТУ №1 (временный)",
                    "coordinates": {
                        "lat": 52.298898,
                        "lon": 104.297655
                    }
                },
                {
                    "name": "Гараж",
                    "coordinates": {
                        "lat": 52.306774,
                        "lon": 104.298979
                    }
                },
                {
                    "name": "Пшеничная",
                    "coordinates": {
                        "lat": 52.30775,
                        "lon": 104.304006
                    }
                },
                {
                    "name": "Онкодиспансер",
                    "coordinates": {
                        "lat": 52.309481,
                        "lon": 104.307496
                    }
                },
                {
                    "name": "Чапаева",
                    "coordinates": {
                        "lat": 52.312054,
                        "lon": 104.312546
                    }
                },
                {
                    "name": "Детская",
                    "coordinates": {
                        "lat": 52.313702,
                        "lon": 104.314874
                    }
                },
                {
                    "name": "Яковлева",
                    "coordinates": {
                        "lat": 52.316425,
                        "lon": 104.315812
                    }
                },
                {
                    "name": "Шевцова",
                    "coordinates": {
                        "lat": 52.318906,
                        "lon": 104.316862
                    }
                },
                {
                    "name": "Топкинский микрорайон",
                    "coordinates": {
                        "lat": 52.324797,
                        "lon": 104.321564
                    }
                }
            ]
        },
        {
            "route_name": "автобус 67",
            "route_direction": "Обратно от ост. Топкинский микрорайон",
            "route_id": "1548717962297413_5mD3j98963G2J26788IG87GG33ymgx47G6G4735786B8444Hudcn56874J153G6GG39CBCG3tjcAuv774C6B27A854AAACCAH1GJHGII3Hf9",
            "stops": [
                {
                    "name": "Топкинский микрорайон",
                    "coordinates": {
                        "lat": 52.325131,
                        "lon": 104.321958
                    }
                },
                {
                    "name": "Енисейская",
                    "coordinates": {
                        "lat": 52.321381,
                        "lon": 104.317999
                    }
                },
                {
                    "name": "Шевцова",
                    "coordinates": {
                        "lat": 52.318639,
                        "lon": 104.316661
                    }
                },
                {
                    "name": "Яковлева",
                    "coordinates": {
                        "lat": 52.31544,
                        "lon": 104.315351
                    }
                },
                {
                    "name": "Чапаева",
                    "coordinates": {
                        "lat": 52.311707,
                        "lon": 104.311802
                    }
                },
                {
                    "name": "Онкодиспансер",
                    "coordinates": {
                        "lat": 52.309655,
                        "lon": 104.307749
                    }
                },
                {
                    "name": "Гараж (временный)",
                    "coordinates": {
                        "lat": 52.306314,
                        "lon": 104.299699
                    }
                },
                {
                    "name": "ГПТУ №1 (временный)",
                    "coordinates": {
                        "lat": 52.302094,
                        "lon": 104.300655
                    }
                },
                {
                    "name": "Фортуна",
                    "coordinates": {
                        "lat": 52.295533,
                        "lon": 104.291773
                    }
                },
                {
                    "name": "Институт зрения",
                    "coordinates": {
                        "lat": 52.29064,
                        "lon": 104.292798
                    }
                },
                {
                    "name": "Кинотеатр Пионер",
                    "coordinates": {
                        "lat": 52.28921,
                        "lon": 104.293503
                    }
                },
                {
                    "name": "Тимирязева",
                    "coordinates": {
                        "lat": 52.284903,
                        "lon": 104.298952
                    }
                },
                {
                    "name": "Центральный рынок",
                    "coordinates": {
                        "lat": 52.281254,
                        "lon": 104.295778
                    }
                },
                {
                    "name": "Ленина",
                    "coordinates": {
                        "lat": 52.277049,
                        "lon": 104.285408
                    }
                },
                {
                    "name": "Художественный музей",
                    "coordinates": {
                        "lat": 52.282887,
                        "lon": 104.280977
                    }
                },
                {
                    "name": "Площадь графа Сперанского",
                    "coordinates": {
                        "lat": 52.288008,
                        "lon": 104.281831
                    }
                },
                {
                    "name": "Чкалова",
                    "coordinates": {
                        "lat": 52.288691,
                        "lon": 104.274805
                    }
                },
                {
                    "name": "Джамбула",
                    "coordinates": {
                        "lat": 52.290443,
                        "lon": 104.255059
                    }
                },
                {
                    "name": "Курорт Ангара",
                    "coordinates": {
                        "lat": 52.289673,
                        "lon": 104.247528
                    }
                },
                {
                    "name": "2-я Железнодорожная",
                    "coordinates": {
                        "lat": 52.285037,
                        "lon": 104.247387
                    }
                },
                {
                    "name": "Чайка",
                    "coordinates": {
                        "lat": 52.278807,
                        "lon": 104.250988
                    }
                },
                {
                    "name": "Шмидта",
                    "coordinates": {
                        "lat": 52.274606,
                        "lon": 104.253685
                    }
                },
                {
                    "name": "Жуковского",
                    "coordinates": {
                        "lat": 52.26971,
                        "lon": 104.25622
                    }
                },
                {
                    "name": "Технический университет",
                    "coordinates": {
                        "lat": 52.262183,
                        "lon": 104.260006
                    }
                },
                {
                    "name": "Институт МВД",
                    "coordinates": {
                        "lat": 52.257782,
                        "lon": 104.262314
                    }
                },
                {
                    "name": "Госуниверситет",
                    "coordinates": {
                        "lat": 52.248922,
                        "lon": 104.264025
                    }
                },
                {
                    "name": "Мегаполис",
                    "coordinates": {
                        "lat": 52.249057,
                        "lon": 104.260295
                    }
                },
                {
                    "name": "Юридический институт",
                    "coordinates": {
                        "lat": 52.250775,
                        "lon": 104.252722
                    }
                },
                {
                    "name": "Гуманитарный центр",
                    "coordinates": {
                        "lat": 52.252853,
                        "lon": 104.248457
                    }
                },
                {
                    "name": "Школа №55",
                    "coordinates": {
                        "lat": 52.259314,
                        "lon": 104.248371
                    }
                },
                {
                    "name": "Ботанический Сад",
                    "coordinates": {
                        "lat": 52.261581,
                        "lon": 104.241967
                    }
                },
                {
                    "name": "Вампилова",
                    "coordinates": {
                        "lat": 52.256467,
                        "lon": 104.235889
                    }
                },
                {
                    "name": "Первомайский микрорайон",
                    "coordinates": {
                        "lat": 52.25353,
                        "lon": 104.233953
                    }
                }
            ]
        }
    ]
}